[
  {
    "id": "hong-kong",
    "name": "Hong Kong",
    "label": "CUHK / doctoral formation",
    "lat": 22.3193,
    "lon": 114.1694,
    "summary": "The strongest public anchor of the academic chapter: Ph.D. formation at The Chinese University of Hong Kong.",
    "camera": {
      "center": [
        114.1694,
        22.3193
      ],
      "zoom": 4.1
    }
  },
  {
    "id": "jincheng",
    "name": "Jincheng, Shanxi",
    "label": "Early years / Birthplace",
    "lat": 35.4907,
    "lon": 112.8518,
    "summary": "Sean's birthplace in Jincheng, Shanxi.",
    "camera": {
      "center": [
        112.8518,
        35.4907
      ],
      "zoom": 5.0
    }
  },
  {
    "id": "hefei",
    "name": "Hefei, Anhui",
    "label": "University of Science and Technology of China (USTC)",
    "lat": 31.8390,
    "lon": 117.2638,
    "summary": "Entered USTC at 16 years old. This is the opening mythic milestone for the story.",
    "camera": {
      "center": [
        117.2638,
        31.8390
      ],
      "zoom": 5.0
    }
  },
  {
    "id": "irvine",
    "name": "Irvine, California",
    "label": "Beckman Laser Institute / UC Irvine",
    "lat": 33.6846,
    "lon": -117.8265,
    "summary": "Research bridge chapter in California before the founder arc takes over.",
    "camera": {
      "center": [
        -117.8265,
        33.6846
      ],
      "zoom": 5.15
    }
  },
  {
    "id": "redwood-city",
    "name": "Redwood City, California",
    "label": "Bloombase / Silicon Valley",
    "lat": 37.4852,
    "lon": -122.2364,
    "summary": "The company chapter and center of the enterprise-security build, now directly reinforced by Bloombase's own worldwide offices page.",
    "camera": {
      "center": [
        -121.15,
        37.4
      ],
      "zoom": 5.1
    }
  },
  {
    "id": "vancouver",
    "name": "Vancouver, Canada",
    "label": "Maple / expansion chapter",
    "lat": 49.2827,
    "lon": -123.1207,
    "summary": "A public expansion story tied to talent, cryptography, and ecosystem positioning, with the location also corroborated by Bloombase's offices page.",
    "camera": {
      "center": [
        -123.1207,
        49.2827
      ],
      "zoom": 4.7
    }
  },
  {
    "id": "shenzhen",
    "name": "Shenzhen, China",
    "label": "Shenzhen Technology University / X-Institute",
    "lat": 22.5431,
    "lon": 114.0579,
    "summary": "Academic leadership chapter: Founding Dean of AI at SZTech (2018–2021) and co-founder of X-Institute of Shenzhen (2021–2023), running in parallel with Bloombase.",
    "camera": {
      "center": [
        114.0579,
        22.5431
      ],
      "zoom": 5.0
    }
  },
  {
    "id": "global-ai",
    "name": "Global AI infrastructure",
    "label": "Conference and alliance layer",
    "lat": 0,
    "lon": 0,
    "summary": "The current chapter is distributed across cloud, accelerator, and security ecosystems rather than one city.",
    "camera": {
      "center": [
        10,
        22
      ],
      "zoom": 1.15
    }
  }
]
