[
  {
    "id": "munich",
    "name": "Munich, Germany",
    "label": "Technical University of Munich",
    "lat": 48.1351,
    "lon": 11.5820,
    "summary": "Early undergraduate studies in Geology at the Technical University of Munich.",
    "camera": {
      "center": [11.5820, 48.1351],
      "zoom": 5.0
    }
  },
  {
    "id": "edinburgh",
    "name": "Edinburgh, Scotland",
    "label": "University of Edinburgh",
    "lat": 55.9533,
    "lon": -3.1883,
    "summary": "BSc in Geology from the University of Edinburgh, with multiple prizes and awards.",
    "camera": {
      "center": [-3.1883, 55.9533],
      "zoom": 6.0
    }
  },
  {
    "id": "cambridge-ma",
    "name": "Cambridge, MA / Woods Hole, MA",
    "label": "MIT-WHOI Joint Program",
    "lat": 42.3601,
    "lon": -71.0942,
    "summary": "MS in Oceanography from the MIT-WHOI Joint Program with Presidential Graduate Fellowship.",
    "camera": {
      "center": [-71.0942, 42.3601],
      "zoom": 8.0
    }
  },
  {
    "id": "cambridge-uk",
    "name": "Cambridge, UK",
    "label": "University of Cambridge / DAMTP",
    "lat": 52.2053,
    "lon": 0.1218,
    "summary": "MPhil in Fluid Flow from Cambridge University's Department of Applied Mathematics and Theoretical Physics.",
    "camera": {
      "center": [0.1218, 52.2053],
      "zoom": 8.0
    }
  },
  {
    "id": "stanford",
    "name": "Stanford, California",
    "label": "Stanford University",
    "lat": 37.4275,
    "lon": -122.1697,
    "summary": "PhD in Petroleum Engineering from Stanford University, specializing in porous media and fluid dynamics.",
    "camera": {
      "center": [-122.1697, 37.4275],
      "zoom": 9.5
    }
  },
  {
    "id": "brown",
    "name": "Providence, Rhode Island",
    "label": "Brown University",
    "lat": 41.8268,
    "lon": -71.4025,
    "summary": "Postdoctoral researcher in tectonophysics at Brown University.",
    "camera": {
      "center": [-71.4025, 41.8268],
      "zoom": 9.0
    }
  },
  {
    "id": "austin",
    "name": "Austin, Texas",
    "label": "University of Texas at Austin",
    "lat": 30.2672,
    "lon": -97.7431,
    "summary": "Faculty career at UT Austin's Jackson School of Geosciences and Oden Institute, from Assistant Professor (2009) to Dave P. Carlton Centennial Professor.",
    "camera": {
      "center": [-97.7431, 30.2672],
      "zoom": 9.5
    }
  }
]
